[{"name":"San Miguel Restaurante","slug":"san-miguel-restaurante","instagram":"https://www.instagram.com/sanmiguelrestaurante/","image":"/desayuno/san-miguel-restaurante.webp","description":"Te Esperamos de jueves a martes.","category":"desayuno","phone":"(664) 609 9480","address":"Parque Azteca Norte 294, Playas de Tijuana.","gmaps":"https://g.page/sanmiguelplayas","latitude":"32.5213616","longitude":"-117.1204474"},{"name":"Omeleto","slug":"omeleto-restaurante","instagram":"https://www.instagram.com/omeletorestaurant/","image":"/desayuno/omeleto.webp","description":"Las mañanas se hicieron para desayunar.","category":"desayuno","phone":"6646817444","address":"Blvd. Gral. Abelardo L. Rodríguez 10941-7, Zona Urbana Rio","gmaps":"https://goo.gl/maps/pH3t3TqADqL2NcZ28","latitude":"32.5184685","longitude":"-117.0151797"},{"name":"Praga café","slug":"cafe-praga","instagram":"https://www.instagram.com/cafepragatj/","image":"/desayuno/praga-cafe.webp","description":"Vegan Sandwich, Pan de centeno oscuro, berenjena asada, alfalfa, aguacate, lechuga romana, tomate, pesto de albahaca, acompañado de puré de papa.","category":"desayuno","phone":"(664) 685 7793","address":"Av. Revolución 1070, Zona Centro.","gmaps":"https://goo.gl/maps/pqYvi3r5AjFgahhw5","latitude":"32.5321937","longitude":"-117.0364254"},{"name":"La Esquinita Cocina Mexicana","slug":"esquinita-cocina-mexicana","instagram":"https://www.instagram.com/laesquinitacocinamexicana/","image":"/desayuno/esquinita-cocina-mexicana.webp","description":"Donde hay comida, hay felicidad.","category":"desayuno","phone":"(664) 720 1929","address":"Av. Andrés Quintana Roo 1781.","gmaps":"https://goo.gl/maps/6KefQhoEBZ7qe4RJ6","latitude":"32.527469","longitude":"-117.0278488"},{"name":"Café de la Flor","slug":"cafe-flor","instagram":"https://www.instagram.com/cafedelaflor/","image":"/desayuno/cafe-flor.webp","description":"La compañia es el mejor alimento.","category":"desayuno","phone":"(664) 681 8633","address":"Av. Sonora 69 Fracc. Chapultepec.","gmaps":"https://g.page/LaFlorChapultepec","latitude":"32.5121183","longitude":"-117.0131064"},{"name":"Malvet","slug":"malvet-restaurante","instagram":"https://www.instagram.com/malvetmx/","image":"/desayuno/malvet.webp","description":"Desayunos y Brunch desde el corazón de nuestra cocina hasta tu mesa.","category":"desayuno","phone":"(664) 378 3428","address":"Paseo Playas de Tijuana 1287","gmaps":"https://goo.gl/maps/8mcSCWjXV4yptZ5p8","latitude":"32.5011315","longitude":"-117.2455097"},{"name":"Riochia7 La Cabaña del Artista","slug":"riochia-7-cabana-artista","instagram":"https://www.instagram.com/riochia7/","image":"/desayuno/riochia7.webp","description":"Arte culinario natural y fresco que creamos todos los días.","category":"desayuno","phone":"(664) 381 5069","address":"Independencia 6213, Colonia Castillo.","gmaps":"https://g.page/LaCasaDelArtistaCafeRiochia7","latitude":"32.5378025","longitude":"-117.0600504"},{"name":"El Yogurt Place","slug":"yogurt-place","instagram":"https://www.instagram.com/elyogurtplace/","image":"/desayuno/yogurt-place.webp","description":"El Yogurt Place inició como un sueño que nunca creímos sería realidad. Era un sueño de un lugar con frutas, verduras, cereales, granos y semillas convertidas en deliciosas creaciones para cuidar de tu salud y vida.","category":"desayuno","phone":"(664) 680 2006","address":"Cantera 360, Playas De Tijuana","gmaps":"https://goo.gl/maps/XLFrYi27L9oMV8Wk6","latitude":"32.53403","longitude":"-117.120526"},{"name":"Marenca Restaurante","slug":"marenca-restaurante","instagram":"https://www.instagram.com/marencaoficial/","image":"/desayuno/marenca.webp","description":"Sabemos lo que te gusta, y lo llevamos a tu mesa.","category":"desayuno","phone":"(664) 634 6419","address":"Paseo de los Héroes 70, Zona Río.","gmaps":"https://g.page/MarencaOficial","latitude":"@32.5232425","longitude":"-117.0144563"},{"name":"La Espadaña","slug":"espadana-restaurante","instagram":"https://www.instagram.com/laespadanatijuana/","image":"/desayuno/espadana.webp","description":"Donde queremos que desayune, coma y cene, casi como en su casa.","category":"desayuno","phone":"(664) 634 1488","address":"Boulevard Sanchez Taboada 10813, Zona Rio.","gmaps":"https://goo.gl/maps/yntnksKBcYd3mZ6c7","latitude":"32.5176167","longitude":"-117.0116943"},{"name":"La Diferencia","slug":"la-diferencia-restaurante","instagram":"https://www.instagram.com/ladiferenciamx/","image":"/desayuno/diferencia.webp","description":"Excelencia en cocina mexicana, rescatando las tradiciones culinarias del México esplendoroso.","category":"desayuno","phone":"6646347078","address":"Bulevar Sánchez Taboada, 10521, Zona Río","gmaps":"https://g.page/la-diferencia-restaurant","latitude":"32.5177145","longitude":"-117.01252"},{"name":"Alma Verde","slug":"alma-verde-restaurante","instagram":"https://www.instagram.com/almaverdemx/","image":"/desayuno/alma-verde.webp","description":"La misión de Alma Verde es ofrecer productos de calidad, por ello utilizamos alimentos orgánicos, saludables y con muy buen sabor.","category":"desayuno","phone":"(664) 972 9607","address":"Av. Hipódromo 19, Hipódromo","gmaps":"https://goo.gl/maps/ixiaVWP3vEwFaixr7","latitude":"32.507216","longitude":"-116.99942"}]